City_ID,City,Country,Lat,Lng,Max Temp,Humidity,Cloudiness,Wind Speed,Current Description
0,Punta Arenas,CL,-53.15,-70.9167,53.71,62,40,26.46,scattered clouds
1,San Vicente,AR,-26.6167,-54.1333,68.49,56,0,2.59,clear sky
2,Upernavik,GL,72.7868,-56.1549,-9.2,86,100,4.79,overcast clouds
3,New Norfolk,AU,-42.7826,147.0587,74.91,44,11,5.01,few clouds
4,Tutoia,BR,-2.7619,-42.2744,77.09,85,97,8.88,overcast clouds
5,Atuona,PF,-9.8,-139.0333,79.12,79,21,20.71,few clouds
6,Mar Del Plata,AR,-38.0023,-57.5575,69.87,86,4,5.01,clear sky
7,Ballina,AU,-28.8667,153.5667,82.02,84,7,13.31,clear sky
8,Rikitea,PF,-23.1203,-134.9692,78.46,76,90,13.69,light rain
9,Albany,US,42.6001,-73.9662,31.23,78,88,5.37,overcast clouds
10,Fairbanks,US,64.8378,-147.7164,4.08,77,0,8.05,clear sky
11,Barrow,US,71.2906,-156.7887,-16.58,83,0,13.8,clear sky
12,Mushie,CD,-3.0167,16.9,75.15,72,89,5.3,overcast clouds
13,Mataura,NZ,-46.1927,168.8643,67.44,55,5,4.23,clear sky
14,Pankrushikha,RU,53.8319,80.3406,14.49,87,98,18.32,overcast clouds
15,Lagoa,PT,39.05,-27.9833,57.88,74,100,17.07,light rain
16,Carnarvon,AU,-24.8667,113.6333,80.73,62,0,22.44,clear sky
17,Pangody,RU,65.85,74.4859,3.22,98,90,8.21,overcast clouds
18,Puerto Ayora,EC,-0.7393,-90.3518,73.54,95,8,1.01,clear sky
19,Hermanus,ZA,-34.4187,19.2345,63.81,86,100,14.67,light rain
20,Busselton,AU,-33.65,115.3333,79.52,35,2,8.37,clear sky
21,Ushuaia,AR,-54.8,-68.3,47.25,95,99,5.14,overcast clouds
22,Cape Town,ZA,-33.9258,18.4232,71.38,78,72,10.0,broken clouds
23,Khani,GE,41.9563,42.9566,40.57,34,100,6.64,overcast clouds
24,Grindavik,IS,63.8424,-22.4338,39.67,93,100,23.02,light rain
25,Te Anau,NZ,-45.4167,167.7167,69.51,47,4,1.66,clear sky
26,Homer,US,59.6425,-151.5483,36.77,79,100,11.99,overcast clouds
27,Ancud,CL,-41.8697,-73.8203,50.83,82,7,4.18,clear sky
28,Tevaitoa,PF,-16.7833,-151.5,80.96,74,9,12.75,light rain
29,Bubaque,GW,11.2833,-15.8333,76.41,71,98,2.71,overcast clouds
30,Mokhsogollokh,RU,61.4681,128.9203,-35.84,100,99,2.55,overcast clouds
31,Provideniya,RU,64.3833,-173.3,14.94,95,100,15.48,light snow
32,Broome,US,42.2506,-75.833,32.7,72,100,9.22,overcast clouds
33,Lebu,CL,-37.6167,-73.65,54.81,84,0,18.54,clear sky
34,Thompson,CA,55.7435,-97.8558,-23.64,76,40,8.05,light snow
35,Comodoro Rivadavia,AR,-45.8667,-67.5,63.45,50,62,13.51,broken clouds
36,Kavieng,PG,-2.5744,150.7967,84.27,71,79,8.66,light rain
37,Jamestown,US,42.097,-79.2353,36.99,77,100,16.11,light snow
38,Port Alfred,ZA,-33.5906,26.891,77.18,78,91,8.99,overcast clouds
39,Methoni,GR,36.8197,21.7049,48.22,74,8,5.32,clear sky
40,Narsaq,GL,60.9167,-46.05,30.42,78,100,10.89,overcast clouds
41,Kapaa,US,22.0752,-159.319,70.12,69,40,9.22,scattered clouds
42,Arraial Do Cabo,BR,-22.9661,-42.0278,75.72,88,65,10.87,broken clouds
43,Avarua,CK,-21.2078,-159.775,80.65,83,40,12.66,scattered clouds
44,Saskylakh,RU,71.9167,114.0833,-47.25,100,58,3.22,broken clouds
45,Castro,BR,-24.7911,-50.0119,59.52,97,7,3.69,clear sky
46,Okha,RU,53.5739,142.9478,-6.36,94,100,19.73,overcast clouds
47,Qaanaaq,GL,77.484,-69.3632,-8.0,70,5,7.23,clear sky
48,Hobart,AU,-42.8794,147.3294,75.27,64,0,17.27,clear sky
49,Saint-Georges,GD,12.0564,-61.7485,73.06,79,10,6.85,clear sky
50,Aquidauana,BR,-20.4711,-55.7872,73.53,92,1,2.46,clear sky
51,Ponta Do Sol,PT,32.6667,-17.1,58.71,74,46,8.66,scattered clouds
52,Bredasdorp,ZA,-34.5322,20.0403,67.55,80,100,13.71,light rain
53,Esperance,AU,-33.8667,121.9,66.09,51,0,11.52,clear sky
54,Grand Gaube,MU,-20.0064,57.6608,84.38,79,42,4.0,light rain
55,Macae,BR,-22.3708,-41.7869,72.45,94,97,5.7,overcast clouds
56,Vaini,TO,-21.2,-175.2,80.76,89,75,5.75,broken clouds
57,Ugoofaaru,MV,5.6667,73.0,80.46,73,2,9.91,clear sky
58,Asau,RO,46.4333,26.4,25.72,93,100,7.65,light snow
59,Ziro,IN,27.6333,93.8333,56.14,48,94,1.95,overcast clouds
60,Jarvakandi,EE,58.7789,24.8258,29.62,92,21,7.58,few clouds
61,Manono,CD,-7.3,27.4167,70.7,94,100,2.68,overcast clouds
62,Bluff,NZ,-46.6,168.3333,62.42,72,7,11.77,clear sky
63,Vallam,IN,10.7167,79.0833,82.45,45,19,11.81,few clouds
64,Port Elizabeth,ZA,-33.918,25.5701,77.29,74,20,20.71,few clouds
65,Kahului,US,20.8947,-156.47,71.83,96,75,11.5,moderate rain
66,Coahuayana,MX,18.7333,-103.6833,67.66,55,0,4.27,clear sky
67,Muscat,OM,23.6139,58.5922,69.82,66,14,12.88,few clouds
68,Khatanga,RU,71.9667,102.5,-11.33,82,100,12.59,overcast clouds
69,Sitka,US,57.0531,-135.33,37.29,87,40,4.61,scattered clouds
70,Lodja,CD,-3.4833,23.4333,72.52,86,100,3.38,overcast clouds
71,Hithadhoo,MV,-0.6,73.0833,81.32,76,96,9.84,overcast clouds
72,Hilo,US,19.7297,-155.09,72.28,95,40,5.01,light rain
73,Buala,SB,-8.145,159.5921,81.7,80,51,2.8,moderate rain
74,Aklavik,CA,68.2191,-135.0107,-22.61,99,68,9.53,broken clouds
75,Dikson,RU,73.5069,80.5464,-12.44,93,100,10.47,overcast clouds
76,Severo-Kurilsk,RU,50.6789,156.125,24.57,75,100,5.61,overcast clouds
77,Loukhi,RU,66.0764,33.0381,27.43,87,100,13.44,overcast clouds
78,San Andres,CO,12.5847,-81.7006,79.63,62,13,24.36,few clouds
79,Bogatyye Saby,RU,56.0102,50.4483,17.08,97,92,4.81,overcast clouds
80,Houma,US,29.5958,-90.7195,52.0,81,100,4.61,haze
81,Pisco,PE,-13.7,-76.2167,69.85,88,87,1.14,overcast clouds
82,Kaspiyskiy,RU,45.3929,47.3707,31.96,83,100,13.69,overcast clouds
83,Chuy,UY,-33.6971,-53.4616,72.23,93,100,3.13,overcast clouds
84,Jumla,NP,29.2747,82.1838,55.31,25,0,4.32,clear sky
85,Bambous Virieux,MU,-20.3428,57.7575,84.22,94,75,2.3,light intensity shower rain
86,Butaritari,KI,3.0707,172.7902,81.01,82,29,23.85,light rain
87,West Bay,KY,19.3667,-81.4167,79.0,79,100,3.0,overcast clouds
88,Cabo San Lucas,MX,22.8909,-109.9124,65.52,71,100,2.75,overcast clouds
89,Vila Velha,BR,-20.3297,-40.2925,76.95,97,100,8.05,overcast clouds
90,Urucui,BR,-7.2294,-44.5561,72.28,87,42,1.66,scattered clouds
91,Fortuna,US,40.5982,-124.1573,48.97,94,100,0.0,overcast clouds
92,Bac Lieu,VN,9.285,105.7244,79.59,68,100,16.87,overcast clouds
93,Guerrero Negro,MX,27.9769,-114.0611,58.57,54,100,6.93,overcast clouds
94,Wanning,CN,18.8003,110.3967,63.59,61,97,17.49,overcast clouds
95,Geraldton,AU,-28.7667,114.6,82.81,54,0,20.71,clear sky
96,Georgetown,MY,5.4112,100.3354,89.53,61,20,4.61,few clouds
97,Henties Bay,NA,-22.116,14.2845,66.34,83,74,4.18,broken clouds
98,Tuktoyaktuk,CA,69.4541,-133.0374,-23.84,100,25,5.93,scattered clouds
99,Sainte-Suzanne,RE,-20.9061,55.6089,86.22,81,100,3.44,light rain
100,Faanui,PF,-16.4833,-151.75,81.09,73,6,12.48,clear sky
101,Talnakh,RU,69.4865,88.3972,1.11,95,100,8.57,overcast clouds
102,Mehamn,NO,71.0357,27.8492,35.55,80,100,6.91,overcast clouds
103,Jamsa,FI,61.8642,25.19,30.15,81,100,14.12,overcast clouds
104,Aksarka,RU,66.5606,67.7975,10.06,93,100,3.74,overcast clouds
105,Camrose,CA,53.0168,-112.8353,4.37,95,100,6.02,overcast clouds
106,Skjervoy,NO,70.0311,20.9714,35.6,76,100,29.53,light rain
107,Burnie,AU,-41.0667,145.9167,72.95,76,99,7.72,overcast clouds
108,Akyab,MM,20.15,92.9,80.83,45,0,8.88,clear sky
109,Cap Malheureux,MU,-19.9842,57.6142,84.47,79,48,4.0,light rain
110,Rio Grande,BR,-32.035,-52.0986,74.7,89,1,6.11,clear sky
111,Cariati,IT,39.4922,16.9594,48.15,77,85,11.25,overcast clouds
112,Bathsheba,BB,13.2167,-59.5167,70.41,88,20,6.91,few clouds
113,Mikkeli,FI,61.6886,27.2723,28.51,86,100,11.5,overcast clouds
114,Axim,GH,4.8699,-2.2405,79.5,87,25,6.26,scattered clouds
115,Nikolskoye,RU,59.7035,30.7861,22.91,93,35,7.43,scattered clouds
116,Petropavlovsk-Kamchatskiy,RU,53.0452,158.6483,14.04,88,90,4.65,overcast clouds
117,Tabou,CI,4.423,-7.3528,77.65,88,15,4.74,few clouds
118,Saint-Philippe,RE,-21.3585,55.7679,85.59,83,96,4.43,light rain
119,Camocim,BR,-2.9022,-40.8411,73.74,92,58,7.85,broken clouds
120,Rio Gallegos,AR,-51.6226,-69.2181,55.89,61,2,13.49,clear sky
121,Vostok,RU,46.4856,135.8833,-13.14,92,100,6.69,overcast clouds
122,Seoul,KR,37.5683,126.9778,31.39,68,100,9.78,light snow
123,Wajir,KE,1.7471,40.0573,84.18,43,0,15.23,clear sky
124,Beringovskiy,RU,63.05,179.3167,12.9,99,100,2.13,overcast clouds
125,Luanda,AO,-8.8368,13.2343,73.4,94,75,3.44,broken clouds
126,Kutum,SD,14.2,24.6667,70.0,10,88,9.84,overcast clouds
127,Tiarei,PF,-17.5333,-149.3333,80.62,77,9,14.25,clear sky
128,Cherskiy,RU,68.75,161.3,-22.74,89,11,1.9,few clouds
129,Kaohsiung,TW,22.6163,120.3133,64.35,58,40,9.22,scattered clouds
130,Revelstoke,CA,50.9832,-118.2023,32.02,93,75,9.22,broken clouds
131,Marsa Matruh,EG,31.3525,27.2453,61.66,58,0,7.34,clear sky
132,Amahai,ID,-3.3333,128.9167,82.49,76,82,2.39,light rain
133,Ulladulla,AU,-35.35,150.4667,81.55,65,83,16.84,broken clouds
134,Naze,JP,28.3667,129.4833,50.92,67,74,19.93,broken clouds
135,Auki,SB,-8.7676,160.7034,80.38,84,100,2.33,overcast clouds
136,Adrar,MR,20.5022,-10.0711,50.22,21,41,10.98,scattered clouds
137,Staszow,PL,50.5631,21.1659,30.9,84,93,7.02,overcast clouds
138,Pevek,RU,69.7008,170.3133,-11.94,91,47,4.38,scattered clouds
139,Maksatikha,RU,57.797,35.8825,8.65,99,100,2.71,overcast clouds
140,Te Karaka,NZ,-38.4654,177.8679,66.4,99,100,3.29,overcast clouds
141,Kuytun,RU,54.3419,101.5036,19.36,82,84,10.89,broken clouds
142,Wasilla,US,61.5814,-149.4394,31.3,91,100,0.0,overcast clouds
143,Eyl,SO,7.9803,49.8164,80.78,56,45,19.04,scattered clouds
144,Maniitsoq,GL,65.4167,-52.9,21.6,74,100,19.22,light snow
145,Akdepe,TM,42.0551,59.3788,33.89,43,0,6.51,clear sky
146,Cidreira,BR,-30.1811,-50.2056,74.77,86,0,16.13,clear sky
147,San Carlos De Bariloche,AR,-41.1456,-71.3082,46.24,73,4,5.3,clear sky
148,Koch Bihar,IN,26.3167,89.4333,81.32,36,0,5.46,clear sky
149,Griffith,US,41.5284,-87.4237,24.66,78,0,9.22,clear sky
150,Ballinrobe,IE,53.6333,-9.2333,44.71,95,100,3.0,overcast clouds
151,Huanren,CN,41.2647,125.3667,17.47,50,100,7.07,overcast clouds
152,Bilibino,RU,68.0546,166.4372,-15.05,93,66,4.74,broken clouds
153,Victoria,HK,22.2855,114.1577,62.26,23,40,10.0,scattered clouds
154,Chokurdakh,RU,70.6333,147.9167,-25.04,98,94,6.93,overcast clouds
155,Pedro Betancourt,CU,22.7272,-81.29,72.14,95,52,6.49,broken clouds
156,Tasiilaq,GL,65.6145,-37.6368,21.36,94,100,15.79,snow
157,Avera,US,33.194,-82.5271,30.25,70,0,5.48,clear sky
158,Sal Rei,CV,16.1833,-22.9167,70.0,78,20,8.05,few clouds
159,Bairiki,KI,1.3292,172.9752,80.6,94,75,10.36,light rain
160,Constitucion,CL,-35.3333,-72.4167,58.68,61,0,9.04,clear sky
161,Gagnoa,CI,6.1293,-5.9437,71.13,98,71,2.39,broken clouds
162,Havre-Saint-Pierre,CA,50.2334,-63.5986,8.6,77,0,5.75,clear sky
163,Green River,US,41.5286,-109.4662,28.98,55,100,14.41,overcast clouds
164,Lodingen,NO,68.414,15.9951,37.54,72,100,23.87,overcast clouds
165,Sisimiut,GL,66.9395,-53.6735,12.29,73,100,12.01,overcast clouds
166,Gijon,ES,43.5357,-5.6615,48.99,89,100,11.99,overcast clouds
167,Hamilton,US,39.1834,-84.5333,44.01,66,0,9.22,clear sky
168,Ribeira Grande,PT,38.5167,-28.7,55.8,76,20,11.5,few clouds
169,Souillac,MU,-20.5167,57.5167,80.98,94,75,2.3,light intensity shower rain
170,Nome,US,64.5011,-165.4064,22.15,93,100,16.11,snow
171,Brandfort,ZA,-28.7001,26.4597,72.81,30,7,7.38,clear sky
172,San Cristobal,VE,7.7669,-72.225,61.16,84,32,2.06,scattered clouds
173,Den Helder,NL,52.9599,4.7593,37.02,83,75,1.01,broken clouds
174,Arlit,NE,18.7369,7.3853,64.62,11,100,6.6,overcast clouds
175,Biak,ID,-0.9131,122.8766,80.38,79,99,2.33,light rain
176,Sabang,ID,5.8933,95.3214,79.99,81,92,20.15,overcast clouds
177,Iqaluit,CA,63.7506,-68.5145,-36.67,67,0,4.61,clear sky
178,Ixtapa,MX,20.7,-105.2,70.23,81,4,3.27,clear sky
179,Longyearbyen,SJ,78.2186,15.6401,17.44,67,40,28.77,scattered clouds
180,Mahebourg,MU,-20.4081,57.7,84.25,94,75,2.3,light intensity shower rain
181,Kenai,US,60.5544,-151.2583,29.14,88,100,5.75,overcast clouds
182,Acarau,BR,-2.8856,-40.12,75.61,88,42,8.93,scattered clouds
183,Port Blair,IN,11.6667,92.75,86.04,66,40,11.5,scattered clouds
184,Hvide Sande,DK,56.0045,8.1294,35.1,87,100,16.13,overcast clouds
185,Seminole,US,28.7086,-81.2081,52.16,79,0,8.05,clear sky
186,Kachug,RU,53.9606,105.8817,18.19,78,59,10.94,broken clouds
187,Meadow Lake,US,34.8014,-106.5436,35.11,41,0,5.73,clear sky
188,Klaksvik,FO,62.2266,-6.589,41.92,77,100,24.65,overcast clouds
189,Trelaze,FR,47.45,-0.4667,38.1,77,100,6.91,overcast clouds
190,Kargalinskaya,RU,43.7417,46.4792,43.38,73,10,15.19,clear sky
191,Pirassununga,BR,-21.9961,-47.4258,66.24,95,7,2.1,clear sky
192,Ilulissat,GL,69.2167,-51.1,10.42,67,75,10.36,broken clouds
193,Port Hardy,CA,50.6996,-127.4199,41.18,100,100,4.61,overcast clouds
194,San Jose El Idolo,GT,14.45,-91.4167,76.84,64,7,4.29,clear sky
195,Galich,RU,58.3797,42.3475,3.31,100,100,2.15,overcast clouds
196,Quang Ngai,VN,15.1167,108.8,66.6,89,98,9.24,overcast clouds
197,Hofn,IS,64.2539,-15.2082,35.64,59,100,4.59,overcast clouds
198,Luderitz,NA,-26.6481,15.1594,71.2,56,0,16.53,clear sky
199,Dingle,PH,10.9995,122.6711,75.67,93,100,11.54,overcast clouds
200,Yellowknife,CA,62.456,-114.3525,-12.44,77,20,18.99,few clouds
201,Cockburn Town,TC,21.4612,-71.1419,76.03,67,49,19.55,scattered clouds
202,Pershotravneve,UA,51.3929,28.8684,27.32,75,28,4.97,scattered clouds
203,Nisia Floresta,BR,-6.0911,-35.2086,77.38,85,8,5.95,clear sky
204,Lata,PT,40.1629,-8.3327,31.91,85,0,4.9,clear sky
205,Sao Filipe,CV,14.8961,-24.4956,74.43,71,8,9.44,clear sky
206,Seekonk,US,41.8084,-71.337,35.82,88,0,1.01,clear sky
207,Krasnoselkup,RU,65.7,82.4667,1.78,98,86,9.66,overcast clouds
208,Lorengau,PG,-2.0226,147.2712,83.52,72,98,6.78,overcast clouds
209,Shelburne,CA,44.0787,-80.2041,32.45,96,100,26.35,light snow
210,Guanica,PR,17.9716,-66.908,72.21,65,0,7.23,clear sky
211,Tiksi,RU,71.6872,128.8694,-33.7,100,93,1.74,overcast clouds
212,Lompoc,US,34.6391,-120.4579,51.01,86,100,15.99,overcast clouds
213,Beloha,MG,-25.1667,45.05,77.9,72,100,17.02,overcast clouds
214,Tilichiki,RU,60.4667,166.1,21.99,88,96,12.48,overcast clouds
215,Rorvik,NO,64.8621,11.2373,37.51,70,20,14.97,light rain
216,Hasaki,JP,35.7333,140.8333,46.29,26,100,4.68,overcast clouds
217,Alofi,NU,-19.0595,-169.9187,78.69,89,100,3.44,light rain
218,Balabac,PH,7.9868,117.0645,80.49,84,100,18.34,overcast clouds
219,Yara,CU,20.2753,-76.9533,67.17,87,84,6.06,broken clouds
220,Gizo,SB,-8.103,156.8419,83.61,72,56,2.64,light rain
221,Kaeo,NZ,-35.1,173.7833,72.32,91,100,4.85,overcast clouds
222,Sorong,ID,-0.8833,131.25,79.5,81,100,5.41,overcast clouds
223,Airai,TL,-8.9266,125.4092,68.11,85,100,1.21,overcast clouds
224,Praia,CV,14.9215,-23.5087,72.14,64,0,21.85,clear sky
225,Beira,MZ,-19.8436,34.8389,87.89,48,40,11.5,scattered clouds
226,Kupang,ID,-10.1667,123.5833,84.78,79,40,6.91,thunderstorm
227,Chiredzi,ZW,-21.05,31.6667,82.98,49,4,2.84,clear sky
228,Marsh Harbour,BS,26.5412,-77.0636,70.86,73,83,14.61,broken clouds
229,Feldkirchen An Der Donau,AT,48.3452,14.0513,31.78,86,75,4.61,broken clouds
230,Bandarbeyla,SO,9.4942,50.8122,78.49,61,18,18.19,few clouds
231,Belize,BZ,17.25,-88.75,68.32,98,87,0.29,overcast clouds
232,Gat,IL,31.61,34.7642,73.78,35,100,11.12,overcast clouds
233,Micheweni,TZ,-4.9667,39.8333,82.18,67,5,11.86,clear sky
234,Kudahuvadhoo,MV,2.6708,72.8944,79.7,79,47,6.31,scattered clouds
235,Allapalli,IN,19.4167,80.0667,93.87,15,0,2.01,clear sky
236,Bad Liebenwerda,DE,51.5167,13.4,31.82,85,9,3.89,clear sky
237,Hurghada,EG,27.2574,33.8129,74.17,43,6,12.5,clear sky
238,Mount Gambier,AU,-37.8333,140.7667,65.28,78,100,6.6,moderate rain
239,Chaltyr,RU,47.2848,39.4823,30.38,79,100,16.62,overcast clouds
240,Port Hedland,AU,-20.3167,118.5667,91.45,62,6,16.11,clear sky
241,Torbay,CA,47.6666,-52.7314,29.57,72,40,20.71,heavy snow
242,Fengrun,CN,39.8333,118.1167,35.29,17,0,14.76,clear sky
243,Touros,BR,-5.1989,-35.4608,78.78,76,0,11.65,clear sky
244,Sept-Iles,CA,50.2001,-66.3821,3.2,84,20,8.05,few clouds
245,Tiznit,MA,29.5833,-9.5,43.32,73,0,3.96,clear sky
246,Katsuura,JP,35.1333,140.3,41.61,51,100,7.4,overcast clouds
247,Eskisehir,TR,39.7767,30.5206,37.31,100,75,6.91,light rain
248,Zyryanka,RU,65.75,150.85,-34.83,99,46,6.17,scattered clouds
249,Camacha,PT,33.0833,-16.3333,54.82,72,75,16.11,light rain
250,Velventos,GR,40.2517,22.0631,36.48,75,20,4.61,few clouds
251,Atar,MR,20.5169,-13.0499,53.92,22,70,9.1,broken clouds
252,Verkhnevilyuysk,RU,63.4453,120.3167,-36.4,98,20,4.43,few clouds
253,Adolfo Lopez Mateos,MX,28.4667,-107.3,36.55,36,65,4.63,broken clouds
254,Tacuarembo,UY,-31.7333,-55.9833,73.45,58,99,10.0,overcast clouds
255,Hualmay,PE,-11.0964,-77.6139,70.27,85,100,6.91,overcast clouds
256,Aswan,EG,24.0934,32.907,72.91,32,5,7.81,clear sky
257,Slave Lake,CA,55.2834,-114.769,3.18,72,100,12.66,light snow
258,Saryozek,KZ,44.3583,77.9753,28.35,66,0,1.48,clear sky
259,Rundu,NA,-17.9333,19.7667,75.51,64,79,4.12,broken clouds
260,Port-Gentil,GA,-0.7193,8.7815,76.96,94,40,5.75,scattered clouds
261,Comalcalco,MX,18.2667,-93.2167,70.95,95,22,4.36,light rain
262,Norman Wells,CA,65.282,-126.8329,-14.76,76,20,5.75,few clouds
263,Phan Thiet,VN,10.9333,108.1,85.78,48,100,18.77,overcast clouds
264,Kaitangata,NZ,-46.2817,169.8464,62.2,67,2,12.55,clear sky
265,Leningradskiy,RU,69.3833,178.4167,-11.13,93,100,8.55,overcast clouds
266,Cabra,ES,37.4725,-4.4421,31.28,72,0,7.61,clear sky
267,Mount Isa,AU,-20.7333,139.5,96.57,30,100,8.05,overcast clouds
268,Taoudenni,ML,22.6783,-3.9836,50.14,19,100,2.86,overcast clouds
269,Pontes E Lacerda,BR,-15.2261,-59.3353,71.62,98,100,2.44,overcast clouds
270,Payson,US,40.0444,-111.7321,35.04,81,100,3.44,overcast clouds
271,Aloleng,PH,16.1307,119.7824,80.71,63,90,15.48,overcast clouds
272,Oga,IT,46.4631,10.347,20.8,91,61,3.98,broken clouds
273,Mingaora,PK,34.7758,72.3625,57.83,36,100,2.75,overcast clouds
274,Oranjemund,NA,-28.55,16.4333,65.93,84,96,16.37,overcast clouds
275,Hailar,CN,49.2,119.7,6.04,95,100,4.59,light snow
276,Thinadhoo,MV,0.5333,72.9333,80.96,76,18,6.51,few clouds
277,Lafia,NG,8.4833,8.5167,80.28,48,8,4.0,clear sky
278,Tezu,IN,27.9167,96.1667,82.38,26,1,4.25,clear sky
279,Tarakan,ID,3.3,117.6333,87.3,70,40,5.75,scattered clouds
280,Bengkulu,ID,-3.8004,102.2655,84.24,71,29,19.15,scattered clouds
281,Pimentel,PE,-6.8367,-79.9342,70.09,83,0,9.22,clear sky
282,Clyde River,CA,70.4692,-68.5914,-12.77,77,100,33.38,heavy snow
283,Osmanabad,IN,18.1667,76.05,84.16,17,2,8.61,clear sky
284,Mahon,ES,39.8885,4.2658,46.96,71,40,18.41,scattered clouds
285,Teeli,RU,51.0333,90.2333,9.12,85,100,1.07,overcast clouds
286,Fort Nelson,CA,58.8053,-122.7002,-0.81,85,40,5.75,scattered clouds
287,Svetlaya,RU,46.5389,138.3297,4.96,59,100,8.75,overcast clouds
288,Lensk,RU,60.7253,114.9278,-0.54,95,100,2.84,overcast clouds
289,Palmer,US,42.1584,-72.3287,31.24,87,0,5.75,clear sky
290,Kodiak,US,57.79,-152.4072,36.91,100,100,0.0,mist
291,Susangerd,IR,31.5608,48.1831,59.02,36,0,12.15,clear sky
292,Los Llanos De Aridane,ES,28.6585,-17.9182,56.95,78,100,14.97,overcast clouds
293,Concepcion,CL,-36.827,-73.0498,55.2,76,0,6.91,clear sky
294,Silale,LT,55.4906,22.1814,23.63,91,24,1.68,few clouds
295,Chumikan,RU,54.7183,135.315,-14.3,84,34,17.72,scattered clouds
296,Itupeva,BR,-23.1531,-47.0578,69.53,83,0,6.91,clear sky
297,Muros,ES,42.7762,-9.0603,39.16,77,7,12.55,clear sky
298,North Battleford,CA,52.7834,-108.2847,-2.11,84,100,6.91,overcast clouds
299,Andenes,NO,69.3143,16.1194,35.58,69,75,20.71,broken clouds
300,Beruwala,LK,6.4788,79.9828,81.43,68,33,9.28,scattered clouds
301,Komsomolskiy,UZ,40.4272,71.7189,36.32,51,81,2.3,haze
302,Lanigan,CA,51.8501,-105.0344,-7.71,99,62,7.27,broken clouds
303,Muroto,JP,33.2833,134.15,45.57,48,19,17.13,few clouds
304,Warri,NG,5.5167,5.75,80.62,79,39,4.81,scattered clouds
305,San Luis,AR,-33.295,-66.3356,66.81,83,14,6.69,few clouds
306,San Francisco,US,37.7749,-122.4194,51.66,89,20,8.05,few clouds
307,Woodward,US,36.4337,-99.3904,41.92,63,0,20.71,clear sky
308,Waingapu,ID,-9.6567,120.2641,86.25,69,100,12.93,overcast clouds
309,Floro,NO,61.5996,5.0328,39.16,87,75,6.91,broken clouds
310,Paso De Carrasco,UY,-34.8603,-56.0522,75.94,94,100,0.0,light rain
311,Saint-Pierre,RE,-21.3393,55.4781,85.68,70,0,12.66,light rain
312,Lufilufi,WS,-13.8745,-171.5986,78.58,73,19,13.0,light rain
313,Oshnaviyeh,IR,37.0397,45.0983,34.79,51,100,5.7,overcast clouds
314,Dire Dawa,ET,9.5931,41.8661,74.52,39,68,5.1,broken clouds
315,Yerbogachen,RU,61.2767,108.0108,-5.24,95,100,3.91,overcast clouds
316,Beterou,BJ,9.1992,2.2586,80.08,72,100,3.8,overcast clouds
317,La Ronge,CA,55.1001,-105.2842,-9.15,70,20,10.36,few clouds
318,Frankfort,ZA,-27.2667,28.4833,76.87,39,0,4.16,clear sky
319,Flin Flon,CA,54.7682,-101.865,-16.65,95,36,7.38,scattered clouds
320,Lamu,KE,-2.2717,40.902,82.62,68,0,12.33,clear sky
321,Gavirate,IT,45.8401,8.7198,33.22,86,7,3.98,clear sky
322,Yulara,AU,-25.2406,130.9889,78.78,61,100,11.27,overcast clouds
323,Fuyu,CN,45.1833,124.8167,7.43,47,18,5.32,few clouds
324,Camargo,MX,27.6667,-105.1667,47.75,46,100,7.58,overcast clouds
325,Marawi,PH,7.9986,124.2928,75.49,83,98,5.61,overcast clouds
326,Tofield,CA,53.3668,-112.6686,3.27,96,100,6.06,overcast clouds
327,Berlin,DE,52.5244,13.4105,33.89,81,100,3.0,overcast clouds
328,Saint Anthony,US,45.0205,-93.218,8.2,72,0,12.66,clear sky
329,Luan,CH,46.3592,6.9759,20.03,93,33,4.99,scattered clouds
330,Ostersund,SE,63.1792,14.6357,32.61,93,25,20.71,scattered clouds
331,East London,ZA,-33.0153,27.9116,77.94,78,75,14.97,broken clouds
332,Billings,US,45.7833,-108.5007,25.29,91,100,17.27,mist
333,Rodrigues Alves,BR,-7.738,-72.6509,71.47,95,100,1.66,overcast clouds
334,Limulunga,ZM,-15.0969,23.1376,70.48,87,100,6.17,overcast clouds
335,Boyolangu,ID,-8.1181,111.8935,80.76,81,100,3.58,overcast clouds
336,Mopti,ML,14.6667,-4.0,62.31,16,92,10.54,overcast clouds
337,Panaba,MX,21.2833,-88.2667,72.03,82,88,13.38,overcast clouds
338,Antequera,ES,37.0194,-4.5612,40.44,81,4,5.32,clear sky
339,Haifa,IL,32.8156,34.9892,68.22,42,0,12.66,clear sky
340,Kapuskasing,CA,49.4169,-82.4331,-2.11,71,40,21.85,scattered clouds
341,Vestmanna,FO,62.1564,-7.1664,40.12,81,75,17.27,broken clouds
342,Gulfport,US,30.3674,-89.0928,42.85,87,0,0.0,clear sky
343,Nalgonda,IN,17.05,79.2667,84.58,32,1,5.84,clear sky
344,Baykit,RU,61.67,96.37,15.35,93,99,5.14,overcast clouds
345,Tuatapere,NZ,-46.1333,167.6833,65.98,58,61,5.37,broken clouds
346,Egvekinot,RU,66.3167,-179.1667,8.85,94,100,9.89,light snow
347,Yar-Sale,RU,66.8333,70.8333,10.96,95,100,7.61,light snow
348,Kruisfontein,ZA,-34.0033,24.7314,70.88,65,83,20.24,broken clouds
349,Salalah,OM,17.0151,54.0924,73.49,56,40,13.8,scattered clouds
350,Ostrovnoy,RU,68.0531,39.5131,25.75,90,100,21.41,overcast clouds
351,Skibotn,NO,69.3913,20.2679,29.16,96,98,7.99,snow
352,Rajshahi,BD,24.3667,88.6,82.22,27,1,11.18,clear sky
353,Ossora,RU,59.2353,163.0719,4.75,100,100,1.97,overcast clouds
354,Santa Rosalia,MX,27.3167,-112.2833,55.89,46,100,2.82,overcast clouds
355,Maiduguri,NG,11.8464,13.1603,79.79,12,9,2.75,clear sky
356,Lavrentiya,RU,65.5833,-171.0,16.0,95,100,10.42,light snow
357,Takoradi,GH,4.8845,-1.7554,79.16,88,21,7.56,few clouds
358,Escarcega,MX,18.6089,-90.7454,67.91,99,66,3.6,broken clouds
359,Vokhtoga,RU,58.8147,41.0461,3.7,100,100,3.44,overcast clouds
360,Ilheus,BR,-14.7889,-39.0494,73.89,91,82,1.68,broken clouds
361,Teya,RU,60.3778,92.6267,15.51,91,100,8.93,overcast clouds
362,Rockland,US,41.1668,-74.0496,36.23,79,80,7.25,broken clouds
363,Abu Dhabi,AE,24.4667,54.3667,69.82,60,20,10.36,few clouds
364,Ustka,PL,54.5805,16.8619,31.64,60,99,1.61,overcast clouds
365,Rocha,UY,-34.4833,-54.3333,71.58,92,100,0.89,overcast clouds
366,Pacific Grove,US,36.6177,-121.9166,52.66,88,100,8.01,overcast clouds
367,Amapa,BR,1.0,-52.0,69.51,99,100,2.19,overcast clouds
368,Kununurra,AU,-15.7667,128.7333,94.98,46,100,5.75,overcast clouds
369,Kedrovyy,RU,56.1667,91.8167,19.87,94,100,10.11,light snow
370,Salmas,IR,38.1973,44.7653,29.73,55,100,3.38,overcast clouds
371,Koslan,RU,63.4564,48.8989,13.28,94,100,7.29,overcast clouds
372,Sawakin,SD,19.1059,37.3321,73.72,68,100,7.38,overcast clouds
373,Farmington,US,36.7281,-108.2187,23.68,79,0,5.99,clear sky
374,Bereda,ES,43.2686,-7.5406,41.41,100,33,5.79,scattered clouds
375,Arman,RU,59.7,150.1667,-7.46,82,100,9.15,overcast clouds
376,Yala,TH,6.3333,101.25,75.65,90,100,1.9,overcast clouds
377,Korla,CN,41.7597,86.1469,21.87,52,5,3.44,clear sky
378,Tura,IN,25.5198,90.2201,80.67,28,7,5.66,clear sky
379,Bronnoysund,NO,65.4625,12.1997,37.4,81,75,11.99,light rain
380,Wilmington,US,34.2257,-77.9447,40.86,85,0,3.44,clear sky
381,Alta Floresta,BR,-9.8756,-56.0861,69.87,99,100,2.68,overcast clouds
382,Jalu,LY,29.0331,21.5482,53.62,60,0,5.93,clear sky
383,Kautokeino,NO,69.0125,23.0412,19.69,90,37,10.38,scattered clouds
384,Miles City,US,46.4083,-105.8406,18.57,93,100,19.57,overcast clouds
385,Sahagun,CO,8.9462,-75.4427,72.72,83,42,3.36,scattered clouds
386,Agnibilekrou,CI,7.1344,-3.2047,70.18,99,50,1.77,scattered clouds
387,Bom Jesus,BR,-9.0744,-44.3586,70.9,83,100,1.88,overcast clouds
388,Maceio,BR,-9.6658,-35.7353,76.44,94,75,2.3,broken clouds
389,Saint George,US,37.1041,-113.5841,34.43,73,0,1.99,clear sky
390,Kagoro,NG,9.6,8.3833,73.85,30,100,2.04,overcast clouds
391,Mitchell,US,43.7094,-98.0298,19.74,92,100,8.05,mist
392,Singkawang,ID,0.9,109.0,81.81,82,100,6.38,overcast clouds
393,Dunedin,NZ,-45.8742,170.5036,59.81,71,0,3.0,clear sky
394,Gilford,US,43.5476,-71.4067,24.98,86,20,4.61,few clouds
395,Amga,RU,60.8953,131.9608,-33.02,99,96,0.94,overcast clouds
396,Nakatsugawa,JP,35.4833,137.5,34.9,43,100,6.69,overcast clouds
397,Pryazha,RU,61.6926,33.6216,25.83,93,100,12.1,overcast clouds
398,Zabaykalsk,RU,49.6333,117.3167,12.54,92,100,8.77,overcast clouds
399,Kavaratti,IN,10.5669,72.642,79.81,71,100,6.73,overcast clouds
400,Tupancireta,BR,-29.0806,-53.8358,75.43,49,55,4.94,broken clouds
401,Vanimo,PG,-2.6741,141.3028,83.37,72,50,7.36,scattered clouds
402,Omegna,IT,45.8798,8.408,32.86,86,7,3.96,clear sky
403,San Jose,US,37.3394,-121.895,50.85,85,20,1.99,few clouds
404,Bilma,NE,18.6853,12.9164,69.58,14,100,6.49,overcast clouds
405,Saint-Augustin,CA,51.226,-58.6502,-1.17,79,0,7.63,clear sky
406,Mamakan,RU,57.8161,114.0028,15.4,87,100,7.54,overcast clouds
407,Tondano,ID,1.3038,124.9112,73.49,81,64,3.31,broken clouds
408,Elat,IL,29.5581,34.9482,69.64,56,40,9.22,scattered clouds
409,Mabaruma,GY,8.2,-59.7833,65.91,88,97,0.96,overcast clouds
410,Moose Factory,CA,51.2585,-80.6094,8.6,85,100,18.41,snow
411,Hong Gai,VN,20.956,107.0946,62.51,33,7,7.45,clear sky
412,Sistranda,NO,63.7256,8.834,37.36,67,48,35.84,scattered clouds
413,Indramayu,ID,-6.3264,108.32,81.21,79,100,14.9,overcast clouds
414,Aquiraz,BR,-3.9014,-38.3911,80.19,83,1,8.93,clear sky
415,Iranshahr,IR,27.2025,60.6848,50.34,87,100,4.61,overcast clouds
416,Itarema,BR,-2.9248,-39.9167,75.38,89,60,8.14,broken clouds
417,Urumqi,CN,43.801,87.6005,7.75,67,1,2.24,clear sky
418,Villa Carlos Paz,AR,-31.4241,-64.4978,64.81,62,1,1.99,clear sky
419,Novopskov,UA,49.5464,39.0899,25.45,71,58,10.71,broken clouds
420,Pudozh,RU,61.8099,36.5345,18.79,94,100,9.89,overcast clouds
421,Mitsamiouli,KM,-11.3847,43.2844,82.72,72,6,9.73,clear sky
422,Menomonie,US,44.8755,-91.9193,8.64,92,0,8.05,clear sky
423,Bose,IT,45.4612,8.0137,34.02,80,98,2.66,overcast clouds
424,Bethel,US,41.3712,-73.414,35.91,74,0,8.05,clear sky
425,Trairi,BR,-3.2778,-39.2689,74.79,91,25,6.24,scattered clouds
426,Sola,VU,-13.8833,167.55,82.69,75,58,11.81,broken clouds
427,Shemonaikha,KZ,50.6328,81.9056,9.1,81,2,7.27,clear sky
428,Galle,LK,6.0367,80.217,80.35,73,94,9.15,overcast clouds
429,Novosergiyevka,RU,52.0934,53.6528,11.91,93,100,5.59,overcast clouds
430,Chernyshevskiy,RU,63.0128,112.4714,-25.83,95,100,6.02,overcast clouds
431,Areka,ET,7.0667,37.7,73.92,34,1,6.06,clear sky
432,Conway,US,35.0887,-92.4421,46.2,58,75,6.91,broken clouds
433,Daru,PG,-9.0763,143.2092,82.4,77,100,7.49,overcast clouds
434,Matagami,CA,49.7502,-77.6328,23.11,86,100,14.97,light snow
435,Luba,GQ,3.4568,8.5547,78.69,79,60,6.49,light rain
436,Suntar,RU,62.1444,117.6319,-20.6,97,98,4.81,overcast clouds
437,Praia Da Vitoria,PT,38.7333,-27.0667,55.65,88,40,12.91,scattered clouds
438,Kita,ML,13.0349,-9.4895,68.31,18,93,5.1,overcast clouds
439,Atherton,GB,53.5237,-2.4935,42.19,90,100,3.04,overcast clouds
440,Katobu,ID,-4.9408,122.5276,79.16,86,99,3.67,heavy intensity rain
441,Sinnamary,GF,5.3833,-52.95,75.18,76,85,6.91,overcast clouds
442,Kloulklubed,PW,7.0419,134.2556,79.3,79,100,17.09,overcast clouds
443,Kizema,RU,61.113,44.8302,9.86,92,43,6.33,scattered clouds
444,Diffa,NE,13.3154,12.6113,77.07,12,73,5.75,broken clouds
445,Tenenkou,ML,14.4572,-4.9169,61.65,18,93,10.4,overcast clouds
446,Sao Felix Do Xingu,BR,-6.6447,-51.995,70.52,99,100,1.1,overcast clouds
447,Taseyevo,RU,57.2169,94.8978,19.36,86,100,8.79,overcast clouds
448,Goias,BR,-15.5807,-49.6362,67.41,96,100,5.03,overcast clouds
449,Kharan,PK,28.5833,65.4167,53.67,48,65,3.42,broken clouds
450,Imeni Poliny Osipenko,RU,52.4201,136.4853,-18.89,96,66,3.15,broken clouds
451,Les Escoumins,CA,48.1111,-69.0236,18.75,95,100,5.53,overcast clouds
452,Padang,ID,-0.9492,100.3543,80.65,71,100,5.82,overcast clouds
453,Serenje,ZM,-13.2325,30.2352,64.38,95,100,3.65,light rain
454,Kaili,ID,-3.4626,120.2147,75.65,81,100,2.13,overcast clouds
455,Canete,CL,-37.8,-73.4,51.98,68,0,5.66,clear sky
456,Mayo,US,38.8876,-76.5119,39.15,64,0,8.05,clear sky
457,Karratha,AU,-20.7377,116.8463,91.87,50,0,13.85,clear sky
458,Turukhansk,RU,65.8167,87.9833,12.7,95,100,8.93,light snow
459,Poienile De Sub Munte,RO,47.8167,24.4333,29.93,78,100,5.48,overcast clouds
460,Kuryk,KZ,43.2,51.65,37.92,46,20,17.74,few clouds
461,Turayf,SA,31.6725,38.6637,53.85,54,20,19.57,few clouds
462,Lashio,MM,22.9333,97.75,83.1,25,5,3.22,clear sky
463,Kidal,ML,18.4411,1.4078,54.01,16,29,9.22,scattered clouds
464,Keti Bandar,PK,24.1447,67.4497,71.53,16,0,16.22,clear sky
465,Lahaina,US,20.8783,-156.6825,71.8,99,100,13.85,light rain
466,Manaure,CO,11.7751,-72.4445,74.07,82,7,11.43,clear sky
467,Tara,RU,56.8944,74.371,21.63,95,100,10.58,light snow
468,Meulaboh,ID,4.1363,96.1285,84.51,68,91,9.01,overcast clouds
469,Norfolk,US,42.1668,-71.2495,32.88,88,0,1.01,clear sky
470,Clarence Town,AU,-32.5833,151.7833,86.61,50,3,11.01,clear sky
471,Placerville,US,38.7296,-120.7986,45.63,82,0,1.01,clear sky
472,Tynda,RU,55.1667,124.7167,-17.64,94,6,0.89,clear sky
473,Chimbote,PE,-9.0853,-78.5783,68.97,86,100,3.51,overcast clouds
474,Sur,OM,22.5667,59.5289,71.24,62,4,12.53,light rain
475,Ajacuba,MX,20.0875,-99.1125,46.11,86,3,1.07,clear sky
476,Karatuzskoye,RU,53.6072,92.8667,26.58,71,100,11.3,light snow
477,Imbituba,BR,-28.24,-48.6703,71.01,86,7,11.88,clear sky
478,Williston,US,48.147,-103.618,3.94,98,78,5.44,broken clouds
479,Caravelas,BR,-17.7125,-39.2481,74.03,93,100,4.23,overcast clouds
480,Alyangula,AU,-13.8483,136.4192,80.01,85,100,10.76,light rain
481,Yeniseysk,RU,58.4497,92.1703,17.92,93,100,6.82,overcast clouds
482,Saint-Maximin-La-Sainte-Baume,FR,43.4521,5.8622,42.19,74,100,2.71,overcast clouds
483,Changji,CN,44.0167,87.3167,11.19,67,33,2.24,scattered clouds
484,Kaura Namoda,NG,12.5898,6.5779,75.6,17,100,1.05,overcast clouds
485,Boende,CD,-0.2167,20.8667,79.93,62,80,4.38,broken clouds
486,Westport,US,41.1415,-73.3579,39.02,72,0,13.8,clear sky
487,Ranong,TH,9.9658,98.6348,85.93,57,59,14.32,broken clouds
488,Nanortalik,GL,60.1432,-45.2371,30.97,95,100,18.72,snow
489,Kaita,JP,34.3667,132.55,36.95,59,93,16.82,overcast clouds
490,Mandalgovi,MN,45.7625,106.2708,22.5,40,7,16.64,clear sky
491,Idrinskoye,RU,54.3708,92.1358,25.16,92,100,7.65,light snow
492,Mala,PE,-12.6581,-76.6308,70.66,87,100,3.85,overcast clouds
493,Tonekabon,IR,36.8163,50.8738,51.75,56,0,5.66,clear sky
494,San Quintin,MX,30.4833,-115.95,54.61,49,100,1.68,overcast clouds
495,Ponta Delgada,PT,37.7333,-25.6667,54.32,87,40,11.5,scattered clouds
496,Tottori,JP,35.5,134.2333,33.87,80,75,19.57,light snow
497,Plastun,RU,44.7561,136.2939,1.56,57,2,12.91,clear sky
498,Abha,SA,18.2164,42.5053,59.25,31,0,13.8,clear sky
499,Isangel,VU,-19.55,169.2667,82.17,80,90,5.5,overcast clouds
500,Birao,CF,10.2849,22.7882,78.62,10,76,12.21,broken clouds
501,Puerto Carreno,CO,6.189,-67.4859,72.27,66,80,11.95,broken clouds
502,Paamiut,GL,61.994,-49.6678,30.56,84,100,25.84,light snow
503,Sulangan,PH,11.1373,123.7228,78.82,88,100,24.92,overcast clouds
504,Xining,CN,36.6167,101.7667,30.18,19,6,2.35,clear sky
505,Roros,NO,62.5747,11.3842,21.04,93,100,4.61,light snow
506,Bacolod,PH,10.6667,122.95,78.12,88,100,15.73,overcast clouds
507,San Buenaventura,MX,27.0833,-101.5333,50.0,73,100,2.46,overcast clouds
508,Kontagora,NG,10.3999,5.4695,76.82,24,67,2.19,broken clouds
509,Bintulu,MY,3.1667,113.0333,86.41,74,40,5.75,scattered clouds
510,Dakar,SN,14.6937,-17.4441,76.08,57,8,20.29,clear sky
511,Sanandaj,IR,35.3144,46.9923,24.82,74,100,9.22,overcast clouds
512,Camopi,GF,3.1655,-52.3158,68.4,99,100,2.01,overcast clouds
513,Bonthe,SL,7.5264,-12.505,75.07,93,84,1.16,broken clouds
514,Yanam,IN,16.7333,82.2167,85.53,38,5,7.49,clear sky
515,Vila Franca Do Campo,PT,37.7167,-25.4333,54.01,85,78,10.31,light rain
516,Malanville,BJ,11.8685,3.3899,73.94,16,93,6.73,overcast clouds
517,Portland,US,45.5234,-122.6762,47.61,93,100,3.0,overcast clouds
518,Alhandra,BR,-7.4386,-34.9144,77.22,82,18,7.83,few clouds
519,Manakara,MG,-22.1333,48.0167,85.17,72,78,0.56,broken clouds
520,Teahupoo,PF,-17.8333,-149.2667,75.16,78,30,13.38,scattered clouds
521,Inhambane,MZ,-23.865,35.3833,85.98,70,40,11.5,scattered clouds
522,Qasigiannguit,GL,68.8193,-51.1922,10.65,83,100,8.52,overcast clouds
523,Stege,DK,54.987,12.2846,33.67,80,71,10.69,broken clouds
524,Montepuez,MZ,-13.1256,38.9997,78.21,77,100,8.37,overcast clouds
525,Orchard Homes,US,46.8633,-114.0484,29.28,95,100,13.0,snow
526,Matale,LK,7.4721,80.6234,85.35,42,44,5.59,scattered clouds
527,Lircay,PE,-12.9896,-74.7205,48.49,94,100,3.78,light rain
528,Muzhi,RU,65.3667,64.6667,15.24,83,100,9.71,overcast clouds
529,Vardo,NO,70.3705,31.1107,34.7,98,100,13.94,snow
530,Nioro,GM,13.35,-15.75,73.47,20,78,5.99,broken clouds
531,Bokoro,TD,12.3807,17.0568,79.61,13,47,9.48,scattered clouds
532,Namibe,AO,-15.1961,12.1522,75.47,76,99,1.99,overcast clouds
533,Aktau,KZ,43.65,51.2,34.38,48,55,17.02,broken clouds
534,Lapua,FI,62.9693,23.0088,32.68,87,100,13.91,overcast clouds
535,Guaira,BR,-20.3183,-48.3106,66.94,95,81,4.94,broken clouds
536,Harwich,GB,51.9419,1.2844,37.0,85,91,1.01,overcast clouds
537,Tautira,PF,-17.7333,-149.15,80.64,77,30,12.95,scattered clouds
538,San Patricio,US,28.017,-97.5169,64.26,94,100,5.79,overcast clouds
539,Sayyan,YE,15.1718,44.3244,54.68,51,8,3.22,clear sky
540,Mpika,ZM,-11.8343,31.4529,65.97,92,100,1.7,light rain
541,Killybegs,IE,54.6333,-8.45,45.05,84,100,3.06,overcast clouds
542,Zhigansk,RU,66.7697,123.3711,-48.42,100,58,1.3,broken clouds
543,Balikpapan,ID,-1.2675,116.8289,85.19,70,20,3.44,few clouds
544,Natal,BR,-5.795,-35.2094,77.22,83,20,5.75,few clouds
545,Samana,DO,19.2056,-69.3369,74.66,64,100,10.2,overcast clouds
546,Joshimath,IN,30.5667,79.5667,60.67,23,0,2.28,clear sky
547,Pangkalanbuun,ID,-2.6833,111.6167,85.28,71,67,6.6,broken clouds
548,Bhadrachalam,IN,17.6667,80.8833,90.5,25,79,2.73,broken clouds
549,Nishihara,JP,26.1842,127.7558,56.86,65,75,26.46,broken clouds
550,Miracema Do Tocantins,BR,-9.5618,-48.3967,70.18,96,100,2.21,overcast clouds
551,Alice Springs,AU,-23.7,133.8833,92.75,40,100,13.8,overcast clouds
552,Kuusamo,FI,65.9667,29.1833,26.64,86,100,16.11,overcast clouds
553,Hajipur,IN,25.6833,85.2167,69.78,73,40,3.44,mist
554,Upala,CR,10.8979,-85.0145,73.15,95,89,8.05,overcast clouds
555,Niksic,ME,42.7731,18.9445,39.06,81,28,5.5,scattered clouds
556,Plouzane,FR,48.3833,-4.6167,43.12,73,100,6.91,overcast clouds
557,Chivolo,CO,10.025,-74.6228,70.93,82,12,2.66,few clouds
558,Berlevag,NO,70.8578,29.0864,35.6,80,100,17.27,overcast clouds
559,Triolet,MU,-20.0547,57.5453,84.27,78,71,7.0,light rain
560,Kieta,PG,-6.2167,155.6333,82.18,79,87,1.9,light rain
561,La Orilla,MX,17.9833,-102.2333,68.97,67,0,4.27,clear sky
562,Merauke,ID,-8.4667,140.3333,83.97,72,100,8.39,overcast clouds
563,Zlutice,CZ,50.0919,13.163,30.09,96,84,3.6,broken clouds
564,Vao,NC,-22.6667,167.4833,76.32,74,100,11.54,light rain
565,Springville,US,40.1652,-111.6107,35.31,82,100,3.44,overcast clouds
566,Inta,RU,66.0317,60.1659,16.2,93,100,18.66,light snow
567,Mersin,TR,36.862,34.6509,54.55,69,98,11.9,overcast clouds
568,Nanchang,CN,28.6833,115.8833,48.04,19,0,8.75,clear sky
569,Ardakan,IR,32.31,54.0175,40.77,47,0,0.76,clear sky
570,Aykhal,RU,66.0,111.5,-30.75,100,94,4.0,overcast clouds
571,Tahta,EG,26.7693,31.5021,69.57,25,6,11.12,clear sky
572,Brownsville,US,25.9018,-97.4975,63.99,98,100,3.44,overcast clouds
573,Twentynine Palms,US,34.1356,-116.0542,52.07,32,0,3.96,clear sky
574,Ambon,ID,-3.6954,128.1814,87.94,66,40,8.05,scattered clouds
575,Oussouye,SN,12.485,-16.5469,71.69,52,52,5.14,broken clouds
576,Tommot,RU,58.9564,126.2925,-25.11,96,19,0.85,few clouds
577,Luau,AO,-10.7073,22.2247,66.07,94,100,2.42,overcast clouds
578,Kologriv,RU,58.8275,44.3178,4.35,100,100,3.11,overcast clouds
579,Launceston,AU,-41.45,147.1667,74.84,62,97,19.57,overcast clouds
580,Tyukhtet,RU,56.5389,89.3011,19.35,93,100,13.15,light snow
581,Poquoson,US,37.1224,-76.3458,38.07,68,0,6.91,clear sky
582,Corralillo,CU,22.9819,-80.5856,73.13,85,64,11.39,moderate rain
583,Port Lincoln,AU,-34.7333,135.8667,64.49,91,100,8.32,moderate rain
584,Pompeia,BR,-22.1086,-50.1717,68.59,90,2,3.89,clear sky
585,Aguas Vermelhas,BR,-15.7472,-41.46,63.37,99,47,2.37,scattered clouds
586,Sorland,NO,67.667,12.6934,35.46,86,100,20.71,light snow
587,Suhut,TR,38.5311,30.5458,38.57,75,36,4.81,scattered clouds
588,Safaga,EG,26.7292,33.9365,73.44,41,4,4.68,clear sky
589,Yeppoon,AU,-23.1333,150.7333,85.78,70,0,10.94,clear sky
590,Half Moon Bay,US,37.4636,-122.4286,50.88,91,20,0.0,mist
591,Falun,SE,60.6036,15.626,32.95,88,73,6.24,broken clouds
592,Kaputa,ZM,-8.4689,29.6619,70.16,86,100,0.56,overcast clouds
593,Linqiong,CN,30.4159,103.4609,55.22,28,1,5.68,clear sky
594,Shumskiy,RU,54.8318,99.1328,23.47,73,100,7.2,overcast clouds
595,Martapura,ID,-3.4167,114.85,84.29,74,40,4.61,light rain
596,Sao Joao Da Barra,BR,-21.6403,-41.0511,74.37,94,34,7.38,scattered clouds
597,Kamalia,PK,30.7333,72.65,71.15,13,79,3.74,broken clouds
598,Catuday,PH,16.2923,119.8062,77.67,65,75,15.03,broken clouds
599,Orangeburg,US,33.4918,-80.8557,40.82,69,0,3.44,clear sky
600,Jiaocheng,CN,24.6774,116.1389,54.99,22,20,7.31,few clouds
601,Yicheng,CN,31.3705,119.8703,42.46,29,0,11.32,clear sky
602,Dno,RU,57.8277,29.9637,16.03,99,99,4.76,overcast clouds
603,Troitskoye,RU,52.9821,84.6757,21.69,71,100,17.11,overcast clouds
604,Wamba,NG,8.9333,8.6,78.08,32,79,1.97,broken clouds
605,Cap-Aux-Meules,CA,47.3821,-61.8597,23.02,68,38,8.05,scattered clouds
606,Lazaro Cardenas,MX,17.9583,-102.2,70.0,67,0,4.12,clear sky
607,Kyrylivka,UA,46.3759,35.3675,36.91,80,100,24.05,overcast clouds
608,Santana Do Livramento,BR,-30.8908,-55.5328,74.44,57,8,1.74,clear sky
609,Nsanje,MW,-16.92,35.262,89.31,49,100,1.41,overcast clouds
610,Nichinan,JP,31.6,131.3667,44.28,47,4,14.92,clear sky
611,Kainantu,PG,-6.2887,145.8655,72.75,67,98,4.14,overcast clouds
612,Bowen,AU,-20.0167,148.2333,82.65,77,100,13.11,overcast clouds
613,Suez,EG,29.9737,32.5263,70.05,47,98,13.6,overcast clouds
614,Bambanglipuro,ID,-7.95,110.2833,82.76,75,98,7.09,light rain
615,Visby,SE,57.6409,18.296,32.83,86,84,13.8,broken clouds
616,Ushtobe,KZ,45.2514,77.9838,19.26,74,4,7.25,clear sky
617,San Rafael,AR,-34.6177,-68.3301,68.68,53,0,1.88,clear sky
618,Gazimurskiy Zavod,RU,51.5461,118.3266,6.37,89,100,0.89,overcast clouds
619,Novo Aripuana,BR,-5.1206,-60.3797,72.03,99,100,2.59,moderate rain
620,Kalevala,RU,65.2,31.1667,26.51,89,100,13.91,overcast clouds
621,Pochutla,MX,15.7432,-96.4661,70.83,59,0,1.52,clear sky
622,Drayton Valley,CA,53.2168,-114.9854,6.17,85,100,14.14,overcast clouds
623,Miquelon,PM,47.0975,-56.3814,28.4,59,100,19.75,overcast clouds
624,Thunder Bay,CA,48.4001,-89.3168,1.38,60,0,11.5,clear sky
625,Jardim,BR,-21.4803,-56.1381,73.31,80,3,3.74,clear sky
626,Ascension,US,30.2169,-90.9001,49.06,85,100,0.0,overcast clouds
627,Banepa,NP,27.6298,85.5214,66.52,28,20,5.75,few clouds
628,Olinda,BR,-8.0089,-34.8553,80.33,69,40,10.36,scattered clouds
629,Ternate,ID,0.8,127.4,80.53,83,95,7.74,light rain
630,Mombasa,KE,-4.0547,39.6636,82.81,65,75,5.75,broken clouds
631,Zenzeli,RU,45.9241,47.0474,31.59,65,100,12.46,overcast clouds
632,Nyon,CH,46.3832,6.2396,34.11,77,75,16.11,broken clouds
633,Hay River,CA,60.8156,-115.7999,-4.02,77,75,16.11,broken clouds
634,Mahibadhoo,MV,3.7833,72.9667,80.24,78,27,11.68,scattered clouds
635,Kargasok,RU,59.0556,80.8572,21.96,94,100,7.4,light snow
636,Mountain Home,US,43.133,-115.6912,33.28,91,0,12.66,clear sky
637,Muncar,ID,-8.4333,114.3333,77.59,92,100,5.35,overcast clouds
638,Nanning,CN,22.8167,108.3167,61.25,16,68,7.45,broken clouds
639,Ilebo,CD,-4.3167,20.5833,73.53,92,100,2.93,overcast clouds
640,Changli,CN,39.7042,119.1506,34.43,19,0,13.42,clear sky
641,Balkhash,KZ,46.844,74.9804,3.81,78,0,11.18,clear sky
642,Libertador General San Martin,AR,-23.8064,-64.7876,75.97,97,100,0.76,very heavy rain
643,Chapais,CA,49.7834,-74.8492,19.18,89,100,16.8,light snow
644,Zheleznodorozhnyy,RU,55.7503,38.0042,27.36,95,100,4.68,overcast clouds
645,Lac Du Bonnet,CA,50.2536,-96.0612,-21.19,100,46,4.0,scattered clouds
646,Nadvoitsy,RU,63.8667,34.3167,23.23,82,100,14.07,overcast clouds
647,Mecca,SA,21.4267,39.8261,76.46,48,0,1.05,clear sky
648,Taltal,CL,-25.4,-70.4833,66.78,82,16,1.86,few clouds
649,Mosquera,CO,4.7059,-74.2302,48.29,93,75,2.3,broken clouds
650,Morehead,US,37.2711,-87.1764,43.86,64,0,4.61,clear sky
651,Concepcion Del Oro,MX,24.6333,-101.4167,45.12,67,95,5.57,overcast clouds
652,Baie-Comeau,CA,49.2168,-68.1489,1.08,92,100,5.75,overcast clouds
653,Roura,GF,4.7263,-52.3274,73.31,94,100,1.14,overcast clouds
654,Havoysund,NO,70.9963,24.6622,37.63,78,100,26.15,overcast clouds
655,Katherine,AU,-14.4667,132.2667,91.72,55,75,6.91,light intensity shower rain
656,Plettenberg Bay,ZA,-34.0527,23.3716,69.8,80,96,10.4,light rain
657,Kozova,UA,49.4354,25.1509,27.54,84,100,8.68,overcast clouds
658,Ayan,RU,56.45,138.1667,-11.9,82,84,6.53,broken clouds
659,Mutare,ZW,-18.9707,32.6709,75.74,45,21,4.94,few clouds
660,Cristalina,BR,-16.7686,-47.6136,61.39,97,100,3.27,overcast clouds
661,Boa Vista,BR,2.8197,-60.6733,75.18,69,0,11.5,clear sky
662,Puri,IN,19.8,85.85,86.52,50,1,8.66,clear sky
663,Nouadhibou,MR,20.931,-17.0347,58.98,55,100,25.32,overcast clouds
664,Labuhan,ID,-6.8844,112.2051,79.68,85,100,14.52,light rain
665,Bakel,SN,14.905,-12.4568,69.46,17,100,9.62,overcast clouds
666,Taytay,PH,14.5678,121.1394,84.13,57,75,13.8,broken clouds
667,Waddan,LY,29.1614,16.139,48.29,36,5,0.11,clear sky
668,Cauquenes,CL,-35.9671,-72.3225,55.87,47,0,4.81,clear sky
669,Ajdabiya,LY,30.7554,20.2263,56.86,57,13,4.12,few clouds
670,Great Bend,US,38.3645,-98.7648,37.04,78,0,11.5,clear sky
671,Guantanamo,CU,20.1444,-75.2092,72.97,83,72,4.88,broken clouds
